City,Cloudiness,Country,Date,Humidity,Lat,Lng,Max Temp,Wind Speed
Okhotsk,84,RU,1570837581,67,59.36,143.24,-1.99,0.742
Hermanus,100,ZA,1570837715,91,-34.42,19.24,13.04,1.34
Katsuura,75,JP,1570837715,83,33.93,134.5,21.81,14.4
Geraldton,90,CA,1570837715,100,49.72,-86.95,14.0,4.1
Altay,0,CN,1570837716,45,47.83,88.13,2.28,2.111
Bredasdorp,97,ZA,1570837716,87,-34.53,20.04,11.19,0.5
Bayir,0,TR,1570837717,93,37.27,28.22,17.0,1.0
Puteyets,100,RU,1570837717,92,65.17,57.09,2.1,1.864
Leua,79,AO,1570837717,89,-11.65,20.45,18.65,1.585
Chara,20,GR,1570837718,88,39.42,22.43,18.52,1.379
Atherton,0,AU,1570837718,61,-17.27,145.48,27.87,5.7
Avera,1,US,1570837718,60,33.19,-82.53,22.0,1.274
Punta Arenas,40,CL,1570837718,80,-53.16,-70.91,3.94,12.3
Am Timan,100,TD,1570837719,89,11.04,20.28,22.62,2.147
Pevek,66,RU,1570837719,73,69.7,170.27,-4.77,8.689
Yellowknife,75,CA,1570837719,68,62.45,-114.38,5.0,11.3
Busselton,38,AU,1570837719,56,-33.64,115.35,13.28,2.33
Castro,100,CL,1570837720,87,-42.48,-73.76,11.0,3.6
Aksarka,44,RU,1570837720,87,66.56,67.8,-0.3,5.217
Thanh Hoa,40,VN,1570837720,100,10.21,106.33,25.0,0.884
Carnarvon,83,ZA,1570837720,10,-30.97,22.13,14.99,1.409
Chokurdakh,96,RU,1570837721,95,70.62,147.9,-8.25,4.238
Ozernovskiy,81,RU,1570837721,82,51.5,156.52,10.55,5.444
Rikitea,76,PF,1570837721,58,-23.12,-134.97,20.8,3.494
Chuy,52,UY,1570837722,83,-33.69,-53.46,18.45,1.319
Kita,75,JP,1570837722,100,35.76,139.74,23.18,9.3
Sao Luiz Gonzaga,45,BR,1570837722,57,-28.41,-54.96,27.39,3.73
Hithadhoo,100,MV,1570837722,80,-0.6,73.08,27.33,7.891
Ushuaia,75,AR,1570837723,97,-54.81,-68.31,4.0,8.2
Kilindoni,57,TZ,1570837723,83,-7.91,39.67,26.31,6.578
Cidreira,11,BR,1570837723,76,-30.17,-50.22,22.08,7.21
Hualmay,0,PE,1570837723,83,-11.1,-77.61,14.45,0.84
Kapaa,90,US,1570837724,78,22.08,-159.32,28.66,3.1
Morant Bay,20,JM,1570837724,66,17.88,-76.41,30.0,6.2
New Norfolk,20,AU,1570837725,53,-42.78,147.06,11.84,1.5
Ust-Kulom,100,RU,1570837725,97,61.69,53.69,3.36,3.473
Arlit,95,NE,1570837725,19,18.74,7.39,34.16,4.557
Saskylakh,97,RU,1570837725,83,71.97,114.09,-10.46,1.865
Atuona,5,PF,1570837726,70,-9.8,-139.03,26.01,5.336
Basoko,95,CD,1570837726,99,1.23,23.61,20.26,1.874
Juneau,75,US,1570837726,81,58.3,-134.42,9.23,1.5
Vejprty,95,CZ,1570837726,81,50.49,13.03,11.14,1.5
Rawson,39,AR,1570837726,61,-43.3,-65.11,12.74,7.821
Chumikan,10,RU,1570837727,43,54.72,135.31,-2.38,10.002
Sola,59,TZ,1570837727,63,-3.17,33.8,21.25,3.862
Taoudenni,57,ML,1570837727,35,22.68,-3.98,30.44,2.434
Jiaozuo,75,CN,1570837727,73,35.21,113.25,17.61,1.441
Qaanaaq,100,GL,1570837727,81,77.48,-69.36,-4.57,3.745
Atambua,26,ID,1570837728,44,-9.11,124.89,29.05,1.259
Nikolskoye,90,RU,1570837728,87,59.7,30.79,8.91,4.0
Ahipara,95,NZ,1570837728,99,-35.17,173.16,20.0,3.191
Komsomolskiy,80,RU,1570837729,90,67.55,63.78,-2.07,5.191
Isangel,75,VU,1570837729,62,-19.55,169.27,29.0,3.1
Cape Town,94,ZA,1570837729,87,-33.93,18.42,15.24,5.7
Aykhal,47,RU,1570837730,74,65.95,111.51,-14.07,2.912
Te Anau,100,NZ,1570837730,96,-45.41,167.72,4.55,2.514
Kerrville,90,US,1570837730,53,30.05,-99.14,10.78,5.1
Talnakh,100,RU,1570837730,72,69.49,88.39,-4.24,5.094
Novyy Svit,17,UA,1570837730,73,47.81,38.02,10.09,3.03
Kudahuvadhoo,99,MV,1570837731,71,2.67,72.89,27.95,2.529
Mill Valley,1,US,1570837731,37,37.91,-122.55,25.0,2.6
Tiksi,100,RU,1570837731,95,71.64,128.87,-5.97,2.891
Hobart,20,AU,1570837731,53,-42.88,147.33,11.84,1.5
Vaini,98,IN,1570837732,96,15.34,74.49,20.26,0.503
Dikson,94,RU,1570837732,93,73.51,80.55,-0.82,8.716
Albany,75,US,1570837732,47,42.65,-73.75,13.06,2.1
Victoria,75,BN,1570837733,88,5.28,115.24,25.04,2.697
Kysyl-Syr,100,RU,1570837733,85,63.9,122.77,-6.76,6.242
Tuatapere,100,NZ,1570837733,79,-46.13,167.69,9.44,4.47
Prenzlau,100,DE,1570837734,72,53.32,13.87,14.33,3.58
Tigil,99,RU,1570837734,67,57.8,158.67,7.64,10.276
San Jose,33,HN,1570837734,92,14.25,-87.96,19.27,1.323
Lompoc,1,US,1570837734,27,34.64,-120.46,25.67,5.1
Barrow,100,AR,1570837734,72,-38.31,-60.23,12.78,4.819
Chabahar,0,IR,1570837735,85,25.29,60.65,24.22,0.566
Lebu,75,ET,1570837735,71,8.96,38.73,14.0,2.1
Upernavik,100,GL,1570837735,81,72.79,-56.15,-1.4,4.762
Gander,40,CA,1570837735,62,48.95,-54.61,13.0,1.5
Dakar,0,SN,1570837736,88,14.69,-17.45,27.03,3.1
Jamestown,0,AU,1570837736,30,-33.21,138.6,18.82,6.482
Athabasca,0,CA,1570837736,64,54.72,-113.29,3.46,3.138
Ketchikan,90,US,1570837736,100,55.34,-131.65,8.0,11.3
Hami,0,CN,1570837736,36,42.84,93.51,11.87,2.388
Mehamn,99,NO,1570837737,82,71.03,27.85,1.92,1.772
Caborca,0,MX,1570837737,36,30.58,-111.1,29.78,1.79
Margherita,40,IN,1570837737,94,27.29,95.67,23.0,1.5
Bathsheba,40,BB,1570837737,74,13.22,-59.52,28.0,4.1
Coffs Harbour,75,AU,1570837738,82,-30.3,153.13,13.85,5.7
Lavrentiya,0,RU,1570837738,66,65.58,-170.99,0.05,5.751
College,75,US,1570837738,73,64.86,-147.8,0.67,4.6
Hamada,75,JP,1570837738,83,34.9,132.08,22.6,8.7
Orhei,43,MD,1570837739,87,47.39,28.83,5.75,2.1
Pisco,14,PE,1570837739,30,-13.71,-76.2,18.91,3.1
Kloulklubed,75,PW,1570837739,74,7.04,134.26,30.0,5.7
Hasaki,75,JP,1570837739,94,35.73,140.83,23.23,7.7
Mataura,100,NZ,1570837739,79,-46.19,168.86,9.44,4.47
Ponta do Sol,96,BR,1570837740,74,-20.63,-46.0,20.82,1.009
Kenai,90,US,1570837740,42,60.55,-151.26,8.92,4.1
Ribeira Grande,100,PT,1570837740,76,38.52,-28.7,15.78,6.759
The Valley,20,AI,1570837740,74,18.22,-63.06,28.04,1.5
Georgetown,20,GY,1570837741,83,6.8,-58.16,26.92,5.1
Guerrero Negro,0,MX,1570837741,25,27.97,-114.04,28.64,5.64
Karratha,0,AU,1570837741,51,-20.74,116.85,26.68,4.152
Trelew,96,AR,1570837742,45,-43.25,-65.31,14.89,6.638
Beringovskiy,79,RU,1570837742,67,63.05,179.32,1.88,4.397
Ilulissat,100,GL,1570837742,90,69.22,-51.1,0.0,4.6
Butaritari,91,KI,1570837742,60,3.07,172.79,29.76,3.64
Port-Gentil,40,GA,1570837743,94,-0.72,8.78,25.0,2.6
San Patricio,6,PY,1570837743,57,-26.98,-56.83,28.18,3.38
Saldanha,98,PT,1570837743,52,41.42,-6.55,17.79,1.919
Baturaja,58,ID,1570837743,77,-4.12,104.17,24.14,0.626
East London,79,ZA,1570837743,80,-33.02,27.91,17.79,4.07
Laguna,75,BZ,1570837744,78,16.17,-88.94,28.0,2.1
Tommot,100,RU,1570837744,89,58.97,126.27,-9.26,6.98
Dzilam Gonzalez,0,MX,1570837744,78,21.28,-88.93,29.44,4.02
Port Alfred,66,ZA,1570837745,85,-33.59,26.89,15.0,0.89
Ciudad Guayana,86,VE,1570837745,95,8.32,-62.69,23.75,2.169
Xining,0,CN,1570837745,78,36.62,101.77,3.91,1.445
Puerto Ayora,3,EC,1570837745,53,-0.74,-90.35,22.38,7.7
Oranjemund,0,ZA,1570837746,77,-28.55,16.43,14.09,2.333
Inirida,64,CO,1570837746,91,3.87,-67.92,23.93,1.197
Pozo Colorado,0,PY,1570837746,33,-23.49,-58.8,31.33,3.38
Quatre Cocos,40,MU,1570837746,83,-20.21,57.76,21.55,3.1
Luderitz,0,NA,1570837747,82,-26.65,15.16,14.0,1.5
Saint-Philippe,1,CA,1570837747,36,45.36,-73.48,13.87,4.104
Faanui,4,PF,1570837747,77,-16.48,-151.75,24.04,9.582
Berlevag,99,NO,1570837747,69,70.86,29.09,4.23,3.383
Salvador,40,BR,1570837748,69,-12.98,-38.48,27.0,4.6
Amiens,49,FR,1570837748,87,49.89,2.3,14.12,5.1
Codrington,40,AU,1570837748,87,-28.95,153.24,13.34,4.1
Loandjili,75,CG,1570837749,88,-4.77,11.87,26.0,3.6
Saint Stephen,90,US,1570837749,80,45.7,-94.27,0.56,7.2
Bluff,0,AU,1570837749,17,-23.58,149.07,26.24,4.28
Kavaratti,100,IN,1570837750,63,10.57,72.64,28.97,0.263
Syriam,20,MM,1570837750,88,16.77,96.24,25.0,1.0
North Platte,1,US,1570837750,28,41.12,-100.77,5.39,11.8
Bethel,40,US,1570837750,64,60.79,-161.76,3.66,6.2
Pacific Grove,1,US,1570837751,10,36.62,-121.92,25.11,3.1
Ostrovnoy,100,RU,1570837751,95,68.05,39.51,-0.82,0.741
Sarangani,100,PH,1570837751,76,5.4,125.46,28.04,4.075
Kukuna,18,SL,1570837751,98,8.64,-12.57,23.71,1.778
Griffith,6,AU,1570837751,51,-34.29,146.06,17.43,4.6
Srednekolymsk,100,RU,1570837752,93,67.46,153.71,-4.52,1.588
The Pas,1,CA,1570837752,44,53.82,-101.24,5.0,9.3
Aktau,90,KZ,1570837752,27,43.65,51.16,17.0,6.0
Santa Maria,75,BR,1570837752,64,-16.02,-48.01,20.7,2.1
Provideniya,0,RU,1570837753,59,64.42,-173.23,-1.45,1.509
Mukhen,0,RU,1570837753,43,48.19,136.14,2.65,3.268
Linxia,1,CN,1570837753,70,35.6,103.21,5.16,1.444
Samarai,81,PG,1570837753,62,-10.62,150.67,26.45,2.34
Cherskiy,100,RU,1570837754,70,68.75,161.3,-3.9,6.185
Matamoros,90,US,1570837754,77,25.87,-97.51,18.47,8.7
Magadan,67,RU,1570837754,71,59.56,150.8,2.7,3.226
Beyneu,81,KZ,1570837754,44,45.32,55.19,12.38,7.988
Naples,0,IT,1570837754,93,40.84,14.25,16.99,0.5
Padang,20,ID,1570837755,91,-0.92,100.36,20.34,0.852
Torbay,75,CA,1570837755,70,47.66,-52.73,6.93,3.1
Sur,0,OM,1570837755,62,22.57,59.53,26.55,4.135
Mount Gambier,40,AU,1570837755,76,-37.83,140.78,13.0,5.7
Arraial do Cabo,20,BR,1570837756,83,-22.97,-42.02,23.0,6.7
Moose Factory,1,CA,1570837756,39,51.26,-80.61,19.0,6.2
Zhigansk,64,RU,1570837756,84,66.77,123.37,-5.46,14.158
Cayenne,6,GF,1570837756,78,4.94,-52.33,27.0,1.5
Itaituba,99,BR,1570837757,92,-4.26,-55.99,23.35,1.742
Road Town,40,VG,1570837757,66,18.42,-64.62,28.03,2.1
Beliu,6,RO,1570837757,81,46.49,21.99,7.94,3.1
Port Elizabeth,90,US,1570837758,51,39.31,-74.98,16.15,2.6
Nuuk,99,GL,1570837758,86,64.17,-51.74,1.0,2.1
Fairhope,40,US,1570837758,78,30.52,-87.9,25.94,2.1
Roald,100,NO,1570837758,87,62.58,6.12,4.9,3.6
Locri,20,IT,1570837759,77,38.24,16.26,19.97,1.0
Santander,100,PH,1570837759,74,9.42,123.33,27.7,3.747
Gigmoto,87,PH,1570837759,73,13.78,124.39,27.12,5.59
Kodiak,1,US,1570837759,48,39.95,-94.76,5.89,5.1
Mahebourg,40,MU,1570837759,83,-20.41,57.7,21.51,3.1
Norrtalje,75,SE,1570837760,93,59.76,18.7,10.12,5.1
Talaya,100,RU,1570837760,67,55.79,84.89,-4.19,2.283
Avarua,38,CK,1570837760,53,-21.21,-159.78,24.0,6.2
Zhicheng,76,CN,1570837760,69,35.04,112.59,17.69,0.287
Nabire,99,ID,1570837761,63,-3.36,135.5,28.88,0.401
Hofn,1,IS,1570837761,60,64.25,-15.21,5.31,8.997
Gorontalo,96,ID,1570837761,73,0.54,123.06,27.45,0.767
Florianopolis,0,BR,1570837761,83,-27.6,-48.55,22.0,5.7
Lakes Entrance,63,AU,1570837762,58,-37.88,147.99,14.09,1.34
Hambantota,100,LK,1570837762,78,6.12,81.12,26.9,2.399
Awbari,0,LY,1570837762,49,26.59,12.77,20.45,3.377
Rocha,100,UY,1570837762,96,-34.48,-54.34,15.49,0.43
Aklavik,90,CA,1570837763,97,68.22,-135.01,0.0,5.1
Norman Wells,75,CA,1570837763,69,65.28,-126.83,3.0,1.5
Orlik,20,PL,1570837763,76,53.95,17.74,12.4,7.7
Conde,81,BR,1570837764,76,-11.81,-37.61,25.97,8.509
Kathu,30,ZA,1570837764,51,-27.7,23.05,21.11,5.819
Kuching,75,MY,1570837764,94,1.56,110.34,23.93,1.5
Mporokoso,49,ZM,1570837764,56,-9.37,30.12,20.87,3.702
Ixtapa,75,MX,1570837765,70,20.71,-105.21,30.79,3.6
Mackay,20,CA,1570837765,29,53.65,-115.58,10.5,3.6
Fortuna,40,US,1570837765,67,40.6,-124.16,17.23,5.1
Fairbanks,75,US,1570837765,72,64.84,-147.72,0.48,4.6
Hilo,40,US,1570837765,62,19.71,-155.08,26.2,6.7
Melfort,1,CA,1570837766,41,52.87,-104.61,4.0,5.1
Kaseda,40,JP,1570837766,69,31.42,130.32,22.46,7.7
Alushta,0,UA,1570837766,63,44.68,34.41,16.8,3.243
Westport,90,US,1570837767,67,41.14,-73.36,14.06,7.7
Horta,40,BR,1570837767,78,-10.93,-37.66,26.0,5.7
Fonte Boa,71,BR,1570837767,88,-2.51,-66.09,23.49,1.438
Del Rio,90,US,1570837768,29,29.36,-100.9,14.85,3.6
Beidao,42,CN,1570837768,60,34.57,105.89,10.17,0.959
Port Hardy,90,CA,1570837768,71,50.7,-127.42,11.0,2.1
Kargopol,100,RU,1570837768,93,61.51,38.95,5.3,3.262
Iqaluit,75,CA,1570837769,69,63.75,-68.52,0.77,6.2
North Bend,1,US,1570837769,36,43.41,-124.22,19.86,3.1
Constitucion,90,MX,1570837769,46,23.99,-104.67,21.0,2.1
Mahibadhoo,94,MV,1570837769,79,3.78,72.97,27.2,4.037
Agadez,1,NE,1570837769,38,16.97,7.99,31.0,5.311
Cobh,100,IE,1570837770,93,51.85,-8.29,8.6,3.1
Vao,100,EE,1570837770,94,59.1,26.19,10.1,4.546
Okahandja,32,NA,1570837770,45,-21.98,16.91,20.0,1.0
Namibe,97,AO,1570837770,85,-15.19,12.15,19.87,4.733
Himeji,75,JP,1570837771,94,34.82,134.69,22.47,11.8
Woodstock,90,CA,1570837771,52,43.13,-80.75,15.88,7.2
LaPlace,75,US,1570837771,74,30.07,-90.48,26.73,2.076
Ahuimanu,75,US,1570837772,74,21.44,-157.84,29.12,2.1
Sumbe,76,AO,1570837772,88,-11.2,13.84,22.64,3.315
San Vicente,20,EC,1570837772,78,-0.59,-80.41,24.0,6.7
Tahoua,78,NE,1570837772,74,14.89,5.26,28.0,2.1
Talca,100,CL,1570837773,72,-35.43,-71.66,16.0,2.1
Bambous Virieux,40,MU,1570837773,83,-20.34,57.76,21.52,3.1
Berdigestyakh,100,RU,1570837773,87,62.1,126.7,-9.38,5.982
Mar del Plata,37,AR,1570837773,60,-46.43,-67.52,8.75,1.165
Alofi,75,NU,1570837774,78,-19.06,-169.92,26.0,6.7
Necochea,100,AR,1570837774,82,-38.55,-58.74,10.56,2.68
Jishou,77,CN,1570837774,87,28.26,109.7,15.15,0.995
Narsaq,75,GL,1570837774,86,60.91,-46.05,1.0,0.5
Bay-Khaak,0,RU,1570837775,37,51.16,94.47,-4.2,0.527
Port Blair,38,IN,1570837775,71,11.67,92.75,27.94,1.296
Zhob,0,PK,1570837775,49,31.34,69.45,17.69,0.503
Jijiga,66,ET,1570837775,80,9.35,42.8,17.16,1.717
Uttarkashi,0,IN,1570837776,83,30.73,78.44,10.88,1.959
Poum,2,MK,1570837776,81,41.28,20.71,10.68,1.723
Micheweni,49,TZ,1570837777,83,-4.97,39.83,26.38,4.341
Saint George,20,GR,1570837282,88,39.45,22.34,18.53,1.379
Havoysund,31,NO,1570837777,92,71.0,24.66,-2.0,2.6
Laurel,1,US,1570837777,62,39.1,-76.85,16.56,2.871
Walvis Bay,30,NA,1570837777,93,-22.95,14.51,16.11,1.5
Harlingen,90,NL,1570837778,100,53.18,5.41,13.36,5.7
Urambo,35,TZ,1570837778,73,-5.07,32.07,21.14,3.758
Jiwani,0,PK,1570837778,76,25.05,61.74,27.44,2.875
Lata,0,IN,1570837778,61,30.78,78.62,-2.64,0.318
Bambanglipuro,87,ID,1570837779,81,-7.95,110.28,24.31,1.866
Ponta Delgada,40,PT,1570837779,88,37.73,-25.67,18.39,5.1
Aksehir,8,TR,1570837779,66,38.36,31.42,15.64,2.714
Nuevo Progreso,90,US,1570837780,63,26.05,-97.95,18.22,8.7
Celestun,0,MX,1570837780,77,20.87,-90.4,28.63,10.484
Natal,20,BR,1570837251,78,-5.81,-35.21,25.0,2.6
Kidal,31,ML,1570837780,29,18.44,1.41,28.47,2.1
La Maddalena,20,IT,1570837780,82,39.15,9.02,17.89,2.6
Jupiter,75,US,1570837781,83,26.93,-80.09,25.84,3.6
Ulaangom,0,MN,1570837781,57,49.98,92.07,1.32,2.475
Carutapera,18,BR,1570837781,80,-1.2,-46.02,26.69,7.451
Kosa,75,JP,1570837781,83,32.67,130.82,21.83,3.6
Yumen,18,CN,1570837782,47,40.29,97.04,8.59,0.765
Hervey Bay,72,AU,1570837782,60,-25.3,152.85,23.24,4.6
Clyde River,20,CA,1570837782,68,70.47,-68.59,-1.0,5.7
Esperance,90,AU,1570837783,100,-33.86,121.89,14.0,2.6
Vardo,1,US,1570837783,63,39.62,-77.74,13.97,2.763
Mandera,73,ET,1570837783,71,3.94,41.86,26.75,8.549
Richards Bay,0,ZA,1570837783,74,-28.77,32.06,18.8,9.379
Cilegon,20,ID,1570837784,78,-6.02,106.05,26.81,2.6
Anda,21,CN,1570837784,27,46.41,125.33,1.65,3.514
Takoradi,9,GH,1570837784,88,4.89,-1.75,25.23,3.291
Abonnema,75,NG,1570837784,100,4.71,6.79,24.0,1.636
Diffa,4,NE,1570837785,51,13.32,12.61,29.9,6.969
Dhadar,0,IN,1570837785,30,28.33,75.06,25.07,3.038
Stranda,100,NO,1570837785,87,62.31,6.93,4.95,3.6
Numata,100,JP,1570837785,92,36.65,139.04,19.98,0.89
Thompson,40,CA,1570837786,47,55.74,-97.86,3.0,7.2
Yulara,34,AU,1570837786,10,-25.24,130.99,31.0,2.1
Fort Nelson,75,CA,1570837786,60,58.81,-122.69,5.0,2.1
Naze,75,NG,1570837786,100,5.43,7.07,24.0,1.708
Okoneshnikovo,50,RU,1570837787,85,54.84,75.08,5.77,3.149
Kotka,90,FI,1570837787,100,60.47,26.95,7.87,3.1
Gladstone,33,AU,1570837787,60,-23.84,151.26,22.77,4.6
Ampanihy,46,MG,1570837787,83,-24.69,44.75,20.9,2.987
Jalu,0,LY,1570837788,78,29.03,21.55,20.82,3.445
Keta,75,GH,1570837788,94,5.92,0.99,25.0,3.6
Caravelas,8,BR,1570837788,89,-17.73,-39.27,21.35,2.308
Salalah,0,OM,1570837789,78,17.01,54.1,25.0,2.1
Qena,1,EG,1570837789,22,26.16,32.72,25.08,2.364
Hamilton,75,CA,1570837789,87,43.26,-79.87,14.56,5.1
Kahului,40,US,1570837789,52,20.89,-156.47,29.14,8.2
Salym,96,RU,1570837789,95,60.06,71.48,1.31,1.499
Gali,99,GE,1570837790,77,42.63,41.74,19.99,6.211
Durango,90,MX,1570837790,46,24.02,-104.67,21.0,2.1
Nelson Bay,75,AU,1570837790,87,-32.72,152.14,14.64,3.1
Klaksvik,100,FO,1570837790,75,62.23,-6.59,8.0,5.1
Vagur,100,FO,1570837791,85,61.47,-6.81,8.67,9.684
Morrope,75,PE,1570837791,29,-6.54,-80.02,19.0,7.7
Sisophon,84,KH,1570837791,83,13.59,102.97,25.85,1.153
Bac Giang,35,VN,1570837436,94,21.27,106.2,25.0,3.1
Severo-Kurilsk,97,RU,1570837791,87,50.68,156.12,11.5,3.644
Maputo,28,MZ,1570837791,78,-25.97,32.57,18.91,0.242
Shimoda,90,JP,1570837792,94,34.7,138.93,23.91,12.9
Pochutla,75,MX,1570837792,78,15.74,-96.47,28.3,4.1
Hobyo,11,SO,1570837793,77,5.35,48.53,26.64,4.749
Vakhrushev,0,RU,1570837793,46,48.99,142.86,5.53,6.297
Yen Bai,92,VN,1570837793,93,21.7,104.87,23.9,1.036
Inuvik,90,CA,1570837794,96,68.36,-133.71,0.0,5.7
Nadym,92,RU,1570837794,76,65.53,72.51,0.27,4.772
Broken Hill,0,AU,1570837794,19,-31.97,141.45,21.0,5.1
Sardulgarh,0,IN,1570837794,53,29.7,75.25,23.02,1.962
Teitipac,40,MX,1570837795,34,16.95,-96.61,27.0,3.6
Soyo,66,AO,1570837795,84,-6.13,12.37,25.21,2.29
Leavenworth,1,US,1570837795,25,47.6,-120.66,8.94,2.1
Husavik,100,CA,1570837795,99,50.56,-96.99,0.5,2.68
Lubu,0,CN,1570837795,74,23.17,112.28,25.96,1.093
Adrar,67,DZ,1570837796,27,27.87,-0.29,26.0,4.6
Nanortalik,88,GL,1570837796,92,60.14,-45.24,3.41,10.873
Tasiilaq,100,GL,1570837796,74,65.61,-37.64,0.0,0.282
Port Lincoln,33,AU,1570837796,63,-34.72,135.86,15.85,6.045
Panaba,0,MX,1570837797,82,21.28,-88.27,27.05,3.113
Puerto Escondido,90,MX,1570837797,74,15.86,-97.07,28.0,0.987
Pangnirtung,93,CA,1570837797,94,66.15,-65.72,-3.11,5.47
Mezen,100,RU,1570837797,91,65.85,44.24,2.71,7.22
Manzhouli,0,CN,1570837797,38,49.6,117.43,-4.88,3.156
Sisimiut,100,GL,1570837798,96,66.94,-53.67,-0.54,6.328
Nagold,25,DE,1570837798,87,48.55,8.72,10.53,0.5
Kasugai,90,JP,1570837798,94,35.27,137.01,21.06,14.9
Loma Bonita,43,MX,1570837799,79,18.11,-95.88,30.56,1.79
Half Moon Bay,1,US,1570837799,34,37.46,-122.43,25.11,2.6
Kendari,76,ID,1570837799,64,-3.99,122.52,28.77,0.467
Khatanga,100,RU,1570837800,64,71.98,102.47,-4.45,4.397
Punta Alta,36,AR,1570837800,55,-27.46,-55.82,32.0,1.5
Yanam,0,IN,1570837800,90,16.73,82.22,24.52,0.476
Kirakira,35,SB,1570837800,65,-10.46,161.92,28.87,2.5
Christchurch,91,NZ,1570837801,76,-43.53,172.64,12.19,6.2
Dingle,54,PH,1570837801,82,11.0,122.67,26.18,2.022
Barranca,0,PE,1570837801,89,-10.75,-77.76,15.56,2.389
San Cristobal,68,HN,1570837801,91,14.68,-86.92,20.03,3.003
Tessalit,63,ML,1570837802,27,20.2,1.01,29.65,2.604
Popondetta,47,PG,1570837802,73,-8.77,148.24,23.58,2.417
Airai,67,TL,1570837802,18,-8.93,125.41,27.25,2.5
Angoche,43,MZ,1570837802,86,-16.23,39.91,24.04,2.452
Souillac,0,FR,1570837803,82,45.6,-0.6,14.29,0.5
Sitka,0,US,1570837803,22,37.17,-99.65,11.11,3.58
Golborne,100,GB,1570837803,93,53.48,-2.6,10.15,2.6
Yeniseysk,0,RU,1570837804,66,58.45,92.17,-3.77,2.56
Casablanca,40,MA,1570837804,77,33.6,-7.62,20.91,2.1
Margate,20,AU,1570837804,53,-43.03,147.26,11.84,1.5
Victoria,75,BN,1570837805,88,5.28,115.24,25.04,2.697
Puerto Ayacucho,75,CO,1570837805,88,5.66,-67.63,26.0,1.069
Borogontsy,100,RU,1570837805,85,62.67,131.17,-8.15,4.122
Arica,38,CL,1570837805,67,-18.48,-70.32,16.45,2.6
Bubaque,64,GW,1570837806,84,11.28,-15.83,28.23,6.947
Marion,97,US,1570837806,76,35.21,-90.2,11.86,5.7
Mikhaylovka,0,RU,1570837806,48,52.96,103.29,-5.63,0.904
Uyuni,3,BO,1570837806,14,-20.46,-66.82,13.21,1.593
Klyuchi,41,RU,1570837807,69,52.25,79.17,9.39,2.639
Terrace Bay,100,CA,1570837807,94,48.78,-87.1,7.07,3.77
Longyearbyen,20,NO,1570837807,79,78.22,15.63,-6.0,1.0
Pljevlja,0,ME,1570837807,70,43.36,19.36,9.0,0.5
Nishihara,90,JP,1570837808,100,35.74,139.53,23.12,7.2
Mayumba,100,GA,1570837808,91,-3.44,10.65,24.87,2.662
Ancud,99,CL,1570837808,87,-41.87,-73.83,11.0,3.6
Nome,90,US,1570837808,77,30.04,-94.42,13.79,5.1
Cuanajo,75,MX,1570837809,83,19.49,-101.51,23.84,3.1
Bayburt,100,TR,1570837809,79,40.26,40.22,5.23,3.606
Leningradskiy,100,RU,1570837809,53,69.38,178.42,-2.16,1.915
Muros,40,ES,1570837809,93,42.77,-9.06,13.91,0.5
San Gabriel,1,US,1570837810,2,34.1,-118.11,28.17,2.166
Tuktoyaktuk,90,CA,1570837810,100,69.44,-133.03,-1.0,6.2
Labuhan,100,ID,1570837810,65,-2.54,115.51,27.7,0.276
Severomuysk,18,RU,1570837811,80,56.17,113.57,-15.4,1.982
Salinas,100,US,1570837811,7,36.67,-121.66,25.11,2.6
Dunedin,100,NZ,1570837811,89,-45.87,170.5,7.41,8.006
Kununurra,13,AU,1570837812,65,-15.77,128.74,26.0,1.5
Lincoln,97,GB,1570837812,81,53.23,-0.54,11.43,6.7
Kamaishi,75,JP,1570837812,93,39.28,141.86,17.0,7.7
Goma,99,CD,1570837812,94,-1.67,29.23,12.44,0.448
Jizan,88,SA,1570837813,79,16.89,42.56,29.0,2.32
Baruun-Urt,75,MN,1570837813,30,46.68,113.28,-4.32,1.657
Cheyenne,1,US,1570837813,30,41.14,-104.82,5.55,7.2
Nemuro,75,JP,1570837813,82,43.32,145.57,16.0,2.1
Sept-Iles,40,CA,1570837813,93,50.2,-66.38,5.74,1.0
Hirara,40,JP,1570837814,78,24.8,125.28,26.0,5.1
Inta,84,RU,1570837814,78,66.04,60.13,0.68,2.179
Camargo,33,MX,1570837814,44,27.69,-105.17,18.15,8.066
La Asuncion,0,AR,1570837815,42,-26.05,-65.39,21.3,1.845
Guiratinga,95,BR,1570837815,84,-16.35,-53.76,22.51,0.887
Belmonte,85,PT,1570837815,65,40.36,-7.35,16.1,1.959
Zaltan,7,LY,1570837816,74,32.95,11.87,23.1,2.838
Bende,40,BE,1570837816,77,50.42,5.41,14.91,7.2
Deputatskiy,100,RU,1570837816,93,69.3,139.9,-8.42,2.723
Nakamura,90,JP,1570837816,94,35.17,136.87,21.06,14.9
Cabo San Lucas,20,MX,1570837817,70,22.89,-109.91,29.2,6.7
Fangshan,90,CN,1570837817,82,39.75,116.14,14.9,1.0
Haines Junction,60,CA,1570837817,93,60.75,-137.51,-1.34,4.876
Yeppoon,2,AU,1570837817,72,-23.13,150.74,20.0,3.6
Huarmey,1,PE,1570837817,76,-10.07,-78.15,15.68,1.255
Dudinka,100,RU,1570837818,70,69.41,86.18,-1.57,9.074
Zhoucheng,90,CN,1570837818,88,31.35,119.33,20.0,2.0
Evensk,100,RU,1570837818,97,61.92,159.24,-0.92,2.979
Kavieng,97,PG,1570837819,67,-2.57,150.8,28.74,1.906
Praia da Vitoria,75,PT,1570837819,87,38.73,-27.07,16.0,4.619
Jonava,100,LT,1570837819,93,55.07,24.28,10.02,5.1
Hovd,89,NO,1570837819,93,63.83,10.7,4.15,2.6
Batagay-Alyta,98,RU,1570837820,88,67.8,130.41,-8.69,6.193
Surt,0,LY,1570837820,86,31.21,16.59,22.23,3.41
Yar-Sale,30,RU,1570837820,84,66.83,70.83,-0.03,5.279
Bilma,100,NE,1570837820,17,18.69,12.92,33.5,7.899
Barra do Garcas,96,BR,1570837821,79,-15.89,-52.26,23.6,3.901
Aksu,15,KZ,1570837821,61,52.04,76.93,9.97,3.166
Kandrian,100,PG,1570837821,84,-6.21,149.55,27.04,2.459
Lagoa,20,PT,1570837821,88,37.14,-8.45,20.29,1.5
Zaozerne,89,UA,1570837822,74,51.37,23.94,10.1,5.713
Visby,100,SE,1570837822,93,57.64,18.3,10.6,4.6
Vila Velha,20,BR,1570837822,74,-3.71,-38.6,27.89,5.7
Maryville,1,US,1570837822,46,35.76,-83.97,21.25,2.179
Subiaco,75,AU,1570837823,87,-31.95,115.83,14.55,4.6
Grand Gaube,40,MU,1570837823,83,-20.01,57.66,21.6,3.1
Homer,90,US,1570837823,42,59.64,-151.54,7.27,3.6
Porto Novo,20,BR,1570837823,69,-23.68,-45.44,23.0,0.414
Yungay,49,PE,1570837824,72,-9.14,-77.74,7.34,2.353
Vieques,40,PR,1570837824,88,18.43,-65.83,26.0,1.305
Terrasini,0,IT,1570837824,88,38.15,13.08,18.66,2.1
Skibbereen,100,IE,1570837825,93,51.55,-9.27,8.0,3.1
Touros,20,BR,1570837825,78,-5.2,-35.46,25.0,2.6
Goiatuba,94,BR,1570837825,56,-18.02,-49.36,23.83,2.117
Calabozo,100,VE,1570837825,97,8.92,-67.43,22.34,0.925
Iskateley,94,RU,1570837825,91,67.68,53.15,0.9,6.13
Gornesti,57,RO,1570837826,93,46.67,24.65,4.53,2.6
Moa,12,CU,1570837826,93,20.66,-74.95,21.49,1.674
Svetlogorsk,100,RU,1570837826,75,53.14,59.15,5.55,3.998
Coihaique,40,CL,1570837827,45,-45.58,-72.07,9.0,4.6
Cururupu,29,BR,1570837827,97,-1.82,-44.87,22.44,1.222
Abu Kamal,100,SY,1570837827,32,34.45,40.92,24.4,3.099
Tocopilla,0,CL,1570837827,24,-22.09,-70.2,12.09,1.024
Kizukuri,75,JP,1570837828,100,40.81,140.39,15.48,3.6
Palasbari,75,IN,1570837828,100,26.14,91.55,24.0,1.001
Chenghai,75,CN,1570837828,94,23.46,116.77,27.0,3.0
Kaniama,100,CD,1570837828,93,-7.57,24.18,19.24,0.971
Rio Gallegos,40,AR,1570837828,45,-51.62,-69.22,8.0,15.9
Neryungri,94,RU,1570837829,84,56.66,124.71,-13.4,3.455
Mao,40,DO,1570837829,70,19.55,-71.08,28.16,3.1
Vestmannaeyjar,100,IS,1570837829,75,63.44,-20.27,7.11,3.946
Misawa,75,JP,1570837829,100,40.75,141.38,15.7,3.6
Espanola,95,CA,1570837830,41,46.27,-81.77,15.92,0.45
Wanning,97,AT,1570837830,100,48.64,13.53,6.42,1.0
Yerbogachen,33,RU,1570837830,87,61.28,108.01,-9.59,2.038
Puerto Carreno,75,CO,1570837831,88,6.19,-67.49,26.0,2.377
Kalabagh,0,PK,1570837831,77,34.07,73.37,20.0,2.059
Kaoma,43,ZM,1570837831,84,-14.8,24.8,18.27,2.393
Jumla,80,NP,1570837832,88,29.28,82.18,4.79,1.325
Harper,90,US,1570837832,53,30.3,-99.24,10.11,5.1
Sibolga,100,ID,1570837832,95,1.74,98.78,22.03,0.95
Guane,26,CU,1570837832,76,22.2,-84.09,28.31,3.632
Acapulco,40,MX,1570837268,74,16.86,-99.88,30.0,2.1
Talara,0,PE,1570837833,89,-4.58,-81.27,17.21,7.067
Kamenka,58,MD,1570837833,91,48.03,28.7,1.67,1.776
Qixingtai,81,CN,1570837833,90,30.41,111.89,16.67,4.678
Houma,43,CN,1570837834,80,35.63,111.36,14.24,1.925
Olenegorsk,77,RU,1570837834,94,68.14,33.28,-4.34,1.183
Havre-Saint-Pierre,20,CA,1570837834,100,50.23,-63.6,3.0,1.0
Bandar-e Lengeh,0,IR,1570837835,73,26.56,54.88,29.94,0.584
Saint Anthony,1,US,1570837835,26,43.97,-111.68,5.96,3.1
Izhma,92,RU,1570837835,95,65.01,53.91,0.94,1.568
Meulaboh,98,ID,1570837836,78,4.14,96.13,26.57,3.094
Betare Oya,98,CM,1570837836,98,5.6,14.08,18.25,0.78
Vaitape,4,PF,1570837836,77,-16.52,-151.75,24.04,9.582
Sakaiminato,90,JP,1570837837,83,35.55,133.23,20.46,10.8
Vitim,71,RU,1570837837,90,59.44,112.57,-8.82,2.622
Sillamae,100,EE,1570837837,89,59.4,27.75,10.45,8.323
Port Macquarie,90,AU,1570837837,87,-31.43,152.91,14.69,2.6
Kingaroy,90,AU,1570837837,71,-26.54,151.84,12.66,8.2
Camabatela,48,AO,1570837838,97,-8.19,15.37,17.5,1.867
Ilabaya,0,PE,1570837838,68,-17.42,-70.51,13.79,1.191
General Pico,94,AR,1570837838,40,-35.66,-63.75,20.83,5.315
Birao,66,CF,1570837839,89,10.3,22.78,22.84,2.034
Mosquera,75,CO,1570837839,93,4.71,-74.23,13.0,2.1
Frankfurt,72,DE,1570837839,93,49.68,10.53,9.23,3.6
Cap Malheureux,40,MU,1570837840,83,-19.98,57.61,21.61,3.1
Sao Felix do Xingu,13,BR,1570837840,71,-6.64,-51.99,24.66,1.419
Portobelo,75,PA,1570837840,83,9.55,-79.65,27.21,2.1
Palmeira das Missoes,0,BR,1570837841,64,-27.9,-53.31,23.04,4.035
Marsh Harbour,18,BS,1570837841,80,26.54,-77.06,25.74,9.054
Manzil Salim,0,TN,1570837841,59,35.86,8.48,16.0,3.1
Malabo,49,CD,1570837841,89,1.56,30.43,19.68,2.467
Yugorsk,100,RU,1570837841,95,61.32,63.33,3.58,4.822
Umarkot,0,PK,1570837842,55,25.37,69.74,27.34,2.69
Saint-Leu,9,RE,1570837842,56,-21.15,55.28,19.39,3.6
Carauari,19,BR,1570837842,77,-4.88,-66.9,25.64,1.898
Moron,9,HT,1570837843,76,18.56,-74.26,26.96,2.452
Morki,50,RU,1570837843,96,56.43,49.0,4.02,2.147
Tabou,95,CI,1570837843,96,4.42,-7.36,23.75,2.047
Kruisfontein,69,ZA,1570837843,53,-34.0,24.73,11.43,1.8
Kailua,75,US,1570837844,74,21.39,-157.74,29.13,2.1
Saveh,0,IR,1570837844,40,35.02,50.36,14.17,1.121
Coquimbo,48,CL,1570837845,71,-29.95,-71.34,14.0,4.1
Pangai,20,TO,1570837845,74,-19.8,-174.35,27.0,6.2
Buala,82,SB,1570837845,70,-8.15,159.59,29.19,3.39
Maymyo,40,MM,1570837845,88,22.03,96.47,25.0,0.814
Copiapo,0,CL,1570837845,71,-27.37,-70.33,14.0,5.1
Zhanaozen,50,KZ,1570837846,34,43.35,52.85,12.61,6.718
Rassvet,100,RU,1570837846,84,49.11,45.47,11.53,3.924
Morehead,90,US,1570837846,64,38.18,-83.43,21.49,1.615
Cairns,40,AU,1570837436,58,-16.92,145.77,28.1,5.1
Bintulu,75,MY,1570837847,94,3.17,113.03,23.93,1.5
Aguascalientes,75,MX,1570837847,34,21.88,-102.3,30.0,2.6
Barcelos,100,BR,1570837847,87,-0.97,-62.93,23.77,0.654
Tapiramuta,3,BR,1570837847,73,-11.85,-40.79,19.9,4.42
Abalak,66,NE,1570837848,32,15.46,6.28,31.25,1.99
Daigo,90,JP,1570837848,94,36.78,140.36,21.47,6.2
Banda Aceh,95,ID,1570837848,92,5.56,95.32,23.05,1.33
Nioro,16,GM,1570837848,67,13.79,-15.05,26.53,4.966
Atar,0,MR,1570837849,16,20.52,-13.05,28.94,3.38
Sollies-Pont,75,FR,1570837849,93,43.19,6.04,14.17,1.5
Cockburn Town,24,TC,1570837849,71,21.46,-71.14,27.47,3.824
Kalety,82,PL,1570837849,76,50.56,18.89,10.19,2.1
Nouadhibou,93,MR,1570837850,50,20.93,-17.03,26.0,7.7
Lipin Bor,100,RU,1570837850,94,60.26,37.97,6.15,3.653
Neuquen,100,AR,1570837850,23,-38.95,-68.06,23.0,2.6
Verkhnyaya Inta,85,RU,1570837850,81,65.99,60.32,-0.54,2.757
Lorengau,100,PG,1570837851,68,-2.02,147.27,28.71,1.97
Chanderi,0,IN,1570837851,56,24.7,78.12,21.4,0.472
Choix,16,MX,1570837851,39,26.71,-108.33,32.8,5.769
Marfino,40,RU,1570837852,93,56.07,37.56,8.18,4.0
Aracati,0,BR,1570837852,69,-4.56,-37.77,26.25,4.458
Kirksville,1,US,1570837852,55,40.19,-92.58,5.2,6.7
Gushikawa,75,JP,1570837853,74,26.35,127.87,25.85,8.2
Sibu,75,MY,1570837853,94,2.29,111.83,23.93,1.0
Rudesheim,70,DE,1570837853,82,49.85,7.82,11.31,5.7
Kulhudhuffushi,22,MV,1570837853,72,6.62,73.07,28.18,2.28
Uvat,100,RU,1570837853,87,59.14,68.9,2.26,2.842
Calbuco,75,CL,1570837854,87,-41.77,-73.13,12.0,3.1
Merauke,99,ID,1570837854,62,-8.49,140.4,29.79,1.666
Umm Kaddadah,42,SD,1570837854,37,13.6,26.69,30.38,3.948
Sile,1,US,1570837854,12,35.56,-106.37,14.3,4.057
Iquique,20,CL,1570837855,63,-20.22,-70.14,18.0,4.1
Sao Filipe,0,CV,1570837855,80,14.9,-24.5,25.51,5.342
Zanjan,93,IR,1570837855,40,36.67,48.48,11.16,2.819
Gat,0,SN,1570837856,88,14.69,-16.54,26.0,3.1
Inhambane,99,MZ,1570837856,78,-23.87,35.38,21.7,7.601
Petropavlovsk-Kamchatskiy,40,RU,1570837856,81,53.05,158.65,9.0,4.0
Waldoboro,90,US,1570837856,66,44.1,-69.38,13.52,10.3
Kaitangata,100,NZ,1570837857,78,-46.28,169.85,7.78,5.36
Andilamena,63,MG,1570837857,89,-17.01,48.57,16.79,1.948
Mersin,100,TR,1570837857,94,36.81,34.63,20.0,1.0
San Lorenzo,75,HN,1570837857,59,13.43,-87.45,32.0,1.004
Batemans Bay,99,AU,1570837858,72,-35.71,150.18,10.35,3.58
Woodward,1,US,1570837858,25,36.43,-99.39,11.77,3.1
Ambanja,17,MG,1570837858,86,-13.68,48.45,24.15,1.898
Lumut,75,BN,1570837858,88,4.66,114.45,24.13,1.0
Wuwei,95,CN,1570837859,66,37.93,102.64,12.22,2.813
Lincoln Village,75,LR,1570837859,94,6.6,-10.38,25.0,5.1
Saint-Joseph,0,FR,1570837859,87,43.56,6.97,12.59,2.6
Sabang,95,PH,1570837860,95,13.8,121.11,25.0,1.13
